index,City,Lat,Lng,Temperature,Humidity,Cloudiness,Wind_Speed,Country,Date
0,jonesboro,35.8423,-90.7043,78.03,41,1,19.57,US,1619477469
1,tambilil,5.9622,124.6697,81.3,78,93,2.55,PH,1619477480
2,alice springs,-23.7,133.8833,53.6,50,0,3.44,AU,1619477481
3,ponta do sol,32.6667,-17.1,56.21,78,78,1.01,PT,1619477212
4,punta arenas,-53.15,-70.9167,44.29,93,90,5.75,CL,1619476936
5,bambous virieux,-20.3428,57.7575,77.49,83,75,12.66,MU,1619477264
6,ancud,-41.8697,-73.8203,53.17,82,75,8.05,CL,1619477481
7,mancio lima,-7.6142,-72.8958,77.0,88,75,9.22,BR,1619477482
8,tuktoyaktuk,69.4541,-133.0374,10.4,72,1,12.66,CA,1619477226
9,timmins,48.4669,-81.3331,48.2,25,75,9.22,CA,1619477482
10,santa ines,-3.6667,-45.38,75.24,94,76,3.22,BR,1619477483
11,ushuaia,-54.8,-68.3,44.6,81,75,3.44,AR,1619477205
12,berlevag,70.8578,29.0864,31.53,72,100,13.27,NO,1619477483
13,buenos aires,-34.6132,-58.3772,62.8,68,0,3.44,AR,1619477484
14,kununurra,-15.7667,128.7333,71.6,88,40,5.35,AU,1619477484
15,mattru,7.6244,-11.8332,78.66,83,59,2.66,SL,1619477485
16,mayo,38.8876,-76.5119,62.38,24,1,8.05,US,1619477485
17,price,39.5994,-110.8107,53.6,37,90,21.85,US,1619477485
18,nome,64.5011,-165.4064,44.6,57,1,4.61,US,1619477230
19,qaanaaq,77.484,-69.3632,39.22,70,93,7.09,GL,1619477220
20,new norfolk,-42.7826,147.0587,52.7,74,12,3.04,AU,1619477486
21,manta,-0.95,-80.7333,84.2,70,20,8.05,EC,1619477054
22,kainantu,-6.2887,145.8655,70.11,66,54,2.57,PG,1619477487
23,igarka,67.4667,86.5833,15.12,90,27,10.71,RU,1619477487
24,longido,-2.7333,36.6833,66.94,77,90,5.28,TZ,1619477488
25,greenville,35.6127,-77.3663,72.59,27,1,3.18,US,1619477488
26,la ronge,55.1001,-105.2842,41.0,60,100,18.41,CA,1619477304
27,busselton,-33.65,115.3333,55.27,93,100,1.86,AU,1619477210
28,amargosa,-13.0303,-39.6047,67.37,93,4,5.37,BR,1619477475
29,ribeira grande,38.5167,-28.7,60.69,84,100,3.18,PT,1619477261
30,bosaso,11.2842,49.1816,84.43,64,56,1.77,SO,1619477489
31,narsaq,60.9167,-46.05,37.4,87,75,5.75,GL,1619477271
32,basco,20.4487,121.9702,75.42,66,85,17.49,PH,1619477490
33,jamestown,42.097,-79.2353,49.28,40,90,6.91,US,1619477234
34,hudiksvall,61.729,17.1036,31.86,68,81,2.33,SE,1619477490
35,iqaluit,63.7506,-68.5145,26.29,80,90,24.16,CA,1619477241
36,longyearbyen,78.2186,15.6401,21.2,63,40,12.66,SJ,1619477240
37,carnarvon,-24.8667,113.6333,62.6,67,0,5.75,AU,1619477125
38,cape town,-33.9258,18.4232,61.23,88,75,14.97,ZA,1619477231
39,rikitea,-23.1203,-134.9692,77.68,73,79,7.45,PF,1619477202
40,saint-pierre,-21.3393,55.4781,72.43,78,90,21.85,RE,1619477262
41,vanimo,-2.6741,141.3028,82.33,73,20,3.15,PG,1619477322
42,aktash,50.3,87.7333,18.18,76,95,3.83,RU,1619477492
43,hirara,24.8,125.2833,68.0,77,20,5.75,JP,1619477492
44,east london,-33.0153,27.9116,68.58,77,96,8.81,ZA,1619477278
45,praia da vitoria,38.7333,-27.0667,60.89,88,75,8.08,PT,1619477237
46,santa maria,-29.6842,-53.8069,62.6,63,0,3.44,BR,1619477254
47,talnakh,69.4865,88.3972,11.32,80,92,8.99,RU,1619477208
48,bluff,-46.6,168.3333,44.01,86,56,15.86,NZ,1619477235
49,cienaga,11.007,-74.2476,86.43,58,90,14.97,CO,1619477494
50,jeremie,18.65,-74.1167,79.59,76,12,5.06,HT,1619477494
51,butaritari,3.0707,172.7902,83.17,76,87,13.02,KI,1619477209
52,ban nahin,18.2418,104.2122,73.96,96,100,1.59,LA,1619477495
53,georgetown,5.4112,100.3354,77.76,89,40,4.61,MY,1619477069
54,tres arroyos,-38.3739,-60.2798,56.64,71,0,6.91,AR,1619477495
55,camacupa,-12.0167,17.4833,62.82,70,57,2.01,AO,1619477496
56,otradnoye,59.7775,30.8181,40.32,75,75,6.71,RU,1619477496
57,linjiang,41.8069,126.9078,50.32,92,100,2.91,CN,1619477496
58,imamoglu,37.2651,35.6572,62.8,100,20,2.3,TR,1619477497
59,kysyl-syr,63.8986,122.7617,16.11,86,100,9.98,RU,1619477497
60,ayolas,-27.4,-56.9,57.2,74,0,5.41,PY,1619477497
61,northam,51.0333,-4.2167,40.68,39,83,2.06,GB,1619477210
62,avera,33.194,-82.5271,75.63,38,1,3.44,US,1619477283
63,hasaki,35.7333,140.8333,49.69,62,20,4.61,JP,1619477153
64,san fernando,15.0286,120.6898,77.0,78,75,2.3,PH,1619477498
65,itatiaia,-22.4961,-44.5633,66.74,97,80,3.87,BR,1619477499
66,kaili,-3.4626,120.2147,69.15,90,65,1.52,ID,1619477499
67,esperance,-33.8667,121.9,68.0,34,100,17.27,AU,1619477296
68,bowen,-20.0167,148.2333,69.8,73,100,4.61,AU,1619477500
69,bethel,41.3712,-73.414,56.03,18,1,16.11,US,1619477315
70,zakharovo,54.366,39.2792,41.0,49,100,10.89,RU,1619477500
71,avarua,-21.2078,-159.775,82.4,74,20,5.75,CK,1619477217
72,sao joao da barra,-21.6403,-41.0511,73.53,92,23,9.8,BR,1619477501
73,hermanus,-34.4187,19.2345,62.01,84,68,4.99,ZA,1619477202
74,albany,42.6001,-73.9662,50.49,30,4,5.99,US,1619477034
75,waingapu,-9.6567,120.2641,75.13,69,27,7.2,ID,1619477502
76,san patricio,28.017,-97.5169,79.11,69,90,18.41,US,1619477249
77,port elizabeth,-33.918,25.5701,62.6,94,75,5.75,ZA,1619477209
78,mataura,-46.1927,168.8643,44.01,86,97,4.97,NZ,1619477216
79,pemberton,50.3164,-122.8027,53.6,54,75,3.44,CA,1619477502
80,airai,-8.9266,125.4092,60.82,64,63,1.95,TL,1619477326
81,puerto escondido,15.85,-97.0667,86.0,70,40,6.91,MX,1619477503
82,mar del plata,-38.0023,-57.5575,58.33,77,0,5.75,AR,1619477503
83,alencon,48.4333,0.0833,51.8,46,0,9.22,FR,1619477504
84,lasa,46.6166,10.7002,47.55,100,90,8.05,IT,1619477288
85,tasiilaq,65.6145,-37.6368,39.2,75,20,7.76,GL,1619477237
86,mutsu,41.2894,141.2169,49.23,70,20,3.44,JP,1619477505
87,atar,20.5169,-13.0499,82.13,17,35,5.55,MR,1619477505
88,walvis bay,-22.9575,14.5053,60.39,94,68,3.44,NA,1619477248
89,alexandria,31.2156,29.9553,62.6,77,0,9.22,EG,1619477271
90,giaveno,45.047,7.3492,48.16,93,100,1.01,IT,1619477507
91,laguna,38.421,-121.4238,66.13,31,1,3.44,US,1619477212
92,anzio,41.4853,12.6179,60.03,66,100,1.01,IT,1619477507
93,kirakira,-10.4544,161.9205,84.61,65,78,3.47,SB,1619476977
94,dikson,73.5069,80.5464,31.82,98,100,17.09,RU,1619477232
95,hilo,19.7297,-155.09,72.81,57,90,9.22,US,1619477106
96,cabo san lucas,22.8909,-109.9124,74.53,56,90,13.8,MX,1619477259
97,port alfred,-33.5906,26.891,66.54,84,99,10.16,ZA,1619477213
98,hoima,1.4356,31.3436,64.13,98,84,2.48,UG,1619477509
99,pisco,-13.7,-76.2167,66.67,83,0,8.05,PE,1619477212
100,pacific grove,36.6177,-121.9166,56.8,76,2,15.99,US,1619477509
101,arrifes,37.7667,-25.7,60.8,77,75,6.91,PT,1619477509
102,pandan,14.0453,124.1694,77.25,82,100,12.82,PH,1619477510
103,bredasdorp,-34.5322,20.0403,51.8,93,30,1.14,ZA,1619477217
104,visnes,59.3556,5.2242,41.0,87,90,4.61,NO,1619477510
105,vao,-22.6667,167.4833,73.63,65,64,19.24,NC,1619477246
106,axim,4.8699,-2.2405,80.98,87,70,7.36,GH,1619477511
107,bridgend,51.5058,-3.5772,41.99,75,82,1.01,GB,1619477512
108,hami,42.8,93.45,46.47,18,3,7.49,CN,1619477512
109,kiruna,67.8557,20.2251,28.4,86,90,8.05,SE,1619477512
110,kapaa,22.0752,-159.319,77.2,65,1,12.66,US,1619477207
111,mwanza,-2.5167,32.9,71.6,88,75,3.89,TZ,1619477513
112,atuona,-9.8,-139.0333,79.88,75,79,14.67,PF,1619477513
113,chuy,-33.6971,-53.4616,56.16,74,8,8.05,UY,1619477241
114,ilulissat,69.2167,-51.1,48.2,46,75,17.27,GL,1619477050
115,arraial do cabo,-22.9661,-42.0278,77.0,83,40,4.61,BR,1619477220
116,maloy,61.9353,5.1136,37.18,75,40,5.75,NO,1619477514
117,victoria,22.2855,114.1577,73.56,88,100,15.97,HK,1619477199
118,kavieng,-2.5744,150.7967,83.66,70,48,1.7,PG,1619476956
119,khatanga,71.9667,102.5,19.74,94,100,15.79,RU,1619477245
120,collie,-33.3667,116.15,54.0,88,100,1.01,AU,1619477515
121,cowra,-33.8333,148.6833,57.0,58,0,1.86,AU,1619477515
122,souillac,-20.5167,57.5167,78.8,83,75,12.66,MU,1619477241
123,nguruka,-5.1092,31.0419,64.13,96,60,1.81,TZ,1619477516
124,santiago del estero,-27.7951,-64.2615,64.36,61,1,6.13,AR,1619477255
125,kindu,-2.95,25.95,71.06,91,62,2.33,CD,1619477518
126,makarov,48.6333,142.8,35.58,70,21,3.29,RU,1619477518
127,dunedin,-45.8742,170.5036,46.99,63,53,13.0,NZ,1619477518
128,samarai,-10.6167,150.6667,81.97,77,92,3.87,PG,1619477286
129,katsuura,35.1333,140.3,51.49,54,40,5.75,JP,1619477237
130,yellowknife,62.456,-114.3525,9.9,52,40,13.8,CA,1619476943
131,arcachon,44.5875,-1.0519,54.25,94,90,5.75,FR,1619477519
132,batemans bay,-35.7167,150.1833,58.41,53,3,2.17,AU,1619477520
133,marzuq,14.4,46.4667,74.07,47,99,7.07,YE,1619477520
134,aden,12.7794,45.0367,83.53,71,94,4.16,YE,1619477486
135,nuuk,64.1835,-51.7216,37.2,93,90,6.91,GL,1619477521
136,noumea,-22.2763,166.4572,75.69,73,40,14.97,NC,1619477351
137,brae,60.3964,-1.353,42.8,87,75,13.8,GB,1619477221
138,pozo colorado,-23.4923,-58.7972,62.74,52,0,6.06,PY,1619477521
139,nikolskoye,59.7035,30.7861,40.33,75,75,6.71,RU,1619477031
140,hope,33.6671,-93.5916,79.0,36,100,5.01,US,1619477522
141,loandjili,-4.7561,11.8578,82.4,89,40,5.75,CG,1619477522
142,tiksi,71.6872,128.8694,16.2,91,100,11.99,RU,1619477236
143,geraldton,-28.7667,114.6,60.8,59,29,10.36,AU,1619477147
144,digby,44.6169,-65.7655,40.91,87,100,9.22,CA,1619477368
145,matagami,49.7502,-77.6328,42.8,39,1,9.22,CA,1619477524
146,boguchany,58.3814,97.4531,30.09,89,94,3.83,RU,1619477292
147,vaini,-21.2,-175.2,77.0,94,75,9.22,TO,1619477215
148,norman wells,65.282,-126.8329,15.8,53,75,9.22,CA,1619477223
149,tessalit,20.1986,1.0114,89.67,8,29,6.73,ML,1619477009
150,thompson,55.7435,-97.8558,50.0,43,40,11.5,CA,1619477264
151,utiel,39.5667,-1.2,56.75,84,76,3.83,ES,1619477526
152,san vicente,-26.6167,-54.1333,52.79,68,0,3.29,AR,1619477526
153,haines junction,60.7522,-137.5108,57.2,21,54,4.61,CA,1619477056
154,bandarbeyla,9.4942,50.8122,82.72,73,87,4.85,SO,1619477244
155,upington,-28.4478,21.2561,69.8,40,82,11.5,ZA,1619477527
156,hobart,-42.8794,147.3294,51.93,76,20,5.75,AU,1619477208
157,sioux lookout,50.1001,-91.917,35.6,80,90,9.22,CA,1619477527
158,poum,-20.2333,164.0167,76.06,71,39,20.56,NC,1619477272
159,taltal,-25.4,-70.4833,63.25,81,6,3.51,CL,1619477290
160,havelock,34.8791,-76.9013,65.95,64,0,5.99,US,1619477528
161,aitape,-3.1374,142.3475,81.75,74,27,1.66,PG,1619477529
162,kruisfontein,-34.0033,24.7314,63.0,84,77,5.01,ZA,1619477249
163,genhe,50.7833,121.5167,34.2,93,100,11.25,CN,1619477529
164,bambanglipuro,-7.95,110.2833,74.89,85,25,4.14,ID,1619477530
165,torbay,47.6666,-52.7314,39.43,65,90,23.02,CA,1619477084
166,saskylakh,71.9167,114.0833,5.2,95,96,4.47,RU,1619477258
167,te anau,-45.4167,167.7167,42.64,78,72,0.67,NZ,1619477313
168,tommot,58.9564,126.2925,36.0,93,100,5.03,RU,1619477531
169,luderitz,-26.6481,15.1594,60.48,86,82,7.43,NA,1619477275
170,bulawayo,-20.15,28.5833,64.54,43,69,5.93,ZW,1619477531
171,kyabe,9.4515,18.9449,88.59,33,24,3.74,TD,1619477532
172,tornio,65.8481,24.1466,30.2,80,0,2.3,FI,1619477532
173,saint george,37.1041,-113.5841,57.88,47,75,21.85,US,1619477226
174,sao gabriel da cachoeira,-0.1303,-67.0892,74.59,97,89,3.94,BR,1619477533
175,marsh harbour,26.5412,-77.0636,75.0,68,0,15.99,BS,1619477533
176,saint-philippe,-21.3585,55.7679,71.58,78,90,21.85,RE,1619477222
177,mitsamiouli,-11.3847,43.2844,80.83,75,49,9.46,KM,1619477007
178,raga,8.4596,25.678,77.13,63,31,6.11,SS,1619477534
179,nizhniye sergi,56.6614,59.3033,36.07,69,4,10.07,RU,1619477534
180,oranjemund,-28.55,16.4333,59.88,88,5,5.73,NA,1619477535
181,snezhnogorsk,69.1933,33.2531,30.2,93,75,2.24,RU,1619477535
182,masuguru,-11.3667,38.4167,70.57,98,18,2.33,TZ,1619477536
183,barrow,71.2906,-156.7887,19.4,73,1,19.57,US,1619477405
184,robertsport,6.7533,-11.3686,82.63,81,73,9.44,LR,1619477536
185,san quintin,30.4833,-115.95,59.92,65,100,16.4,MX,1619477537
186,buzovna,40.5179,50.1139,53.6,87,0,6.91,AZ,1619477537
187,tual,-5.6667,132.75,82.99,57,74,2.84,ID,1619477538
188,saint-augustin,51.226,-58.6502,38.14,80,100,32.91,CA,1619477538
189,coquimbo,-29.9533,-71.3436,60.8,72,20,9.22,CL,1619477206
190,chokurdakh,70.6333,147.9167,23.32,86,99,4.54,RU,1619476943
191,verkhoyansk,67.5447,133.385,32.22,98,100,2.26,RU,1619477296
192,valvedditturai,9.8167,80.1667,80.85,82,36,8.99,LK,1619477539
193,bengkulu,-3.8004,102.2655,75.06,88,87,4.12,ID,1619477275
194,san jose,37.3394,-121.895,62.04,45,75,14.97,US,1619477282
195,mahebourg,-20.4081,57.7,78.8,83,75,12.66,MU,1619477218
196,leh,34.1667,77.5833,31.66,37,8,2.89,IN,1619477540
197,vestmannaeyjar,63.4427,-20.2734,44.8,90,12,9.33,IS,1619477260
198,nanortalik,60.1432,-45.2371,33.76,97,97,9.69,GL,1619477256
199,abu samrah,35.3029,37.1841,58.06,81,0,17.11,SY,1619477541
200,mananara,-16.1667,49.7667,73.08,95,90,2.82,MG,1619477541
201,acapulco,16.8634,-99.8901,86.0,62,75,8.05,MX,1619477269
202,ormara,25.2088,64.6357,80.56,81,27,4.85,PK,1619477542
203,margate,51.3813,1.3862,42.84,80,95,3.0,GB,1619477542
204,rio grande,-32.035,-52.0986,59.0,84,84,10.85,BR,1619477324
205,puerto ayora,-0.7393,-90.3518,76.77,81,38,7.7,EC,1619477225
206,yumaguzino,52.9041,56.3933,39.81,63,83,4.59,RU,1619477543
207,kendari,-3.945,122.4989,76.68,88,66,1.77,ID,1619477286
208,houma,29.5958,-90.7195,77.77,57,1,10.36,US,1619477294
209,kasempa,-13.4584,25.8338,65.8,70,96,3.02,ZM,1619477543
210,lorengau,-2.0226,147.2712,83.93,70,93,1.1,PG,1619477252
211,faanui,-16.4833,-151.75,81.28,66,93,4.0,PF,1619477260
212,upernavik,72.7868,-56.1549,35.51,81,65,4.54,GL,1619477238
213,naze,28.3667,129.4833,68.0,64,20,8.05,JP,1619477253
214,caravelas,-17.7125,-39.2481,76.68,78,60,7.36,BR,1619477545
215,shenyang,41.7922,123.4328,53.6,82,90,6.71,CN,1619477545
216,castro,-24.7911,-50.0119,62.26,74,60,3.27,BR,1619477233
217,lodja,-3.4833,23.4333,72.09,87,48,1.59,CD,1619477258
218,boulder,40.0833,-105.3505,70.97,12,1,10.36,US,1619477546
219,kavaratti,10.5669,72.642,83.77,74,2,7.83,IN,1619477180
220,luwuk,-0.9516,122.7875,79.36,82,83,3.98,ID,1619477546
221,kodiak,57.79,-152.4072,44.6,76,90,10.36,US,1619477006
222,kalmunai,7.4167,81.8167,78.28,84,25,8.61,LK,1619477547
223,cockburn town,21.4612,-71.1419,78.55,73,0,12.82,TC,1619477208
224,adrar,20.5022,-10.0711,84.49,19,31,11.95,MR,1619477230
225,vysha,53.8477,42.3777,39.85,84,85,6.89,RU,1619477548
226,kaitangata,-46.2817,169.8464,44.01,84,70,10.0,NZ,1619477548
227,henderson,36.0397,-114.9819,66.65,29,1,12.66,US,1619477548
228,tuatapere,-46.1333,167.6833,44.01,86,96,8.12,NZ,1619477252
229,sibolga,1.7427,98.7792,77.76,85,97,2.95,ID,1619477549
230,loa janan,-0.583,117.095,74.44,98,69,1.01,ID,1619477549
231,saint anthony,45.0205,-93.218,46.11,81,90,10.36,US,1619477259
232,verkhnyaya balkariya,43.1279,43.4573,51.4,87,90,8.95,RU,1619477550
233,krasnokamensk,50.0979,118.0369,35.01,62,99,26.28,RU,1619477550
234,muravlenko,63.7898,74.523,34.2,98,100,12.62,RU,1619477551
235,provideniya,64.3833,-173.3,37.4,70,0,4.34,RU,1619477234
236,nemuro,43.3236,145.575,36.55,70,16,8.39,JP,1619477551
237,olafsvik,64.8945,-23.7142,42.21,64,0,3.58,IS,1619477552
238,paragominas,-2.9667,-47.4833,73.89,93,77,2.84,BR,1619477552
239,padang,-0.9492,100.3543,75.2,94,20,1.14,ID,1619477552
240,husavik,66.0449,-17.3389,35.6,80,0,4.61,IS,1619477227
241,fortuna,40.5982,-124.1573,55.47,54,40,10.36,US,1619477325
242,richards bay,-28.783,32.0377,65.57,93,42,5.79,ZA,1619477553
243,mukhen,48.1,136.1,53.11,32,60,5.97,RU,1619477554
244,korla,41.7597,86.1469,53.55,34,13,5.79,CN,1619477554
245,nalut,30.3333,10.85,79.72,20,43,11.65,LY,1619477298
246,srednekolymsk,67.45,153.6833,24.98,74,30,6.08,RU,1619477294
247,nanyamba,-10.6833,39.8333,75.2,94,20,11.5,TZ,1619477555
248,acarau,-2.8856,-40.12,79.7,81,66,11.9,BR,1619477555
249,qandala,11.472,49.8728,84.31,67,80,1.97,SO,1619477556
250,clinton,42.587,-82.9199,48.88,53,75,10.36,US,1619477396
251,hattiesburg,31.3271,-89.2903,79.0,29,1,6.91,US,1619477358
252,serpa,37.9458,-7.5975,59.0,94,40,3.44,PT,1619477556
253,rosignol,6.2833,-57.5333,76.5,87,93,6.71,GY,1619477557
254,prince rupert,54.3161,-130.3201,53.71,44,1,5.75,CA,1619477230
255,akyab,20.15,92.9,79.39,83,13,1.5,MM,1619477557
256,tilichiki,60.4667,166.1,30.87,99,100,1.45,RU,1619477558
257,zapolyarnyy,69.4154,30.8136,28.4,80,100,4.61,RU,1619477558
258,varna,43.2167,27.9167,45.46,87,0,8.05,BG,1619477280
259,clyde river,70.4692,-68.5914,24.8,100,75,3.44,CA,1619477559
260,rudnogorsk,57.2639,103.7519,23.67,85,14,4.36,RU,1619477559
261,hay river,60.8156,-115.7999,7.68,66,100,8.05,CA,1619477223
262,maniitsoq,65.4167,-52.9,33.3,98,100,8.86,GL,1619477299
263,lata,40.1629,-8.3327,57.96,95,31,1.01,PT,1619477560
264,portland,45.5234,-122.6762,56.59,67,75,4.61,US,1619476922
265,kloulklubed,7.0419,134.2556,78.8,89,75,6.2,PW,1619477314
266,bilma,18.6853,12.9164,89.29,9,10,8.08,NE,1619477115
267,chum phae,16.5443,102.0992,72.81,93,100,1.9,TH,1619477561
268,aykhal,66.0,111.5,8.76,94,100,12.84,RU,1619477561
269,ixtapa,20.7,-105.2,81.3,74,75,14.97,MX,1619477293
270,kasane,-17.8167,25.15,68.05,58,44,3.09,BW,1619477562
271,tulagi,-9.0996,160.1476,81.73,73,97,1.99,SB,1619477562
272,constitucion,-35.3333,-72.4167,58.24,71,0,10.65,CL,1619477273
273,the valley,18.217,-63.0578,79.63,73,20,11.5,AI,1619477265
274,rochefort,45.9167,-1.0,54.27,66,0,6.91,FR,1619477563
275,carbonia,39.1672,8.5222,59.7,88,40,3.44,IT,1619477563
276,yushu,44.8,126.5333,56.12,52,100,19.42,CN,1619477564
277,kahului,20.8947,-156.47,76.66,57,40,14.97,US,1619477172
278,cidreira,-30.1811,-50.2056,64.09,70,35,10.13,BR,1619477320
279,vostok,46.4856,135.8833,47.97,33,31,3.06,RU,1619477319
280,white oak,39.2131,-84.5994,73.85,25,1,8.05,US,1619477565
281,vardo,70.3705,31.1107,28.4,74,20,11.5,NO,1619477565
282,grindavik,63.8424,-22.4338,41.0,87,20,4.61,IS,1619477151
283,sobolevo,54.4299,31.8996,30.31,77,13,4.65,RU,1619477566
284,visby,57.6409,18.296,36.61,81,90,10.36,SE,1619477566
285,namatanai,-3.6667,152.4333,84.45,68,56,3.24,PG,1619477566
286,marquette,46.5333,-87.6335,34.25,93,100,8.3,US,1619477567
287,camopi,3.1655,-52.3158,72.82,99,100,2.64,GF,1619477567
288,saldanha,-33.0117,17.9442,62.6,94,80,20.71,ZA,1619477284
289,cascais,38.6979,-9.4215,60.21,94,94,8.01,PT,1619477375
290,hirtshals,57.5881,9.9592,32.14,60,2,2.3,DK,1619477568
291,vila nova de milfontes,37.7238,-8.7828,57.99,92,64,1.99,PT,1619477568
292,iquitos,-3.7481,-73.2472,78.8,89,75,2.3,PE,1619477569
293,teya,60.3778,92.6267,30.81,93,45,2.84,RU,1619477569
294,port hedland,-20.3167,118.5667,68.0,34,1,10.36,AU,1619477569
295,leningradskiy,69.3833,178.4167,30.13,86,38,4.79,RU,1619477570
296,sakaiminato,35.55,133.2333,45.68,76,75,2.3,JP,1619477570
297,maldonado,-34.6667,-54.9167,63.34,72,75,14.97,UY,1619477277
298,tocopilla,-22.092,-70.1979,66.87,66,11,4.25,CL,1619477571
299,emerald,-23.5333,148.1667,66.99,39,90,9.22,AU,1619477571
300,port blair,11.6667,92.75,80.69,74,67,4.36,IN,1619477249
301,remanso,-9.6179,-42.0831,81.37,59,85,6.55,BR,1619477572
302,anloga,5.7947,0.8973,84.2,84,40,8.05,GH,1619477313
303,aztec,36.8222,-107.9929,68.92,10,1,10.36,US,1619477572
304,camacha,33.0833,-16.3333,62.6,82,40,11.5,PT,1619477572
305,inhambane,-23.865,35.3833,71.87,87,1,5.55,MZ,1619477277
306,codrington,-38.2667,141.9667,56.71,74,70,1.83,AU,1619477573
307,neiafu,-18.65,-173.9833,82.4,83,75,13.8,TO,1619477573
308,yulara,-25.2406,130.9889,55.4,50,0,8.05,AU,1619477276
309,lebu,-37.6167,-73.65,54.55,86,3,10.16,CL,1619477289
310,antalaha,-14.9003,50.2788,72.77,90,58,5.21,MG,1619477574
311,vestmanna,62.1564,-7.1664,39.2,81,100,19.57,FO,1619477575
312,clarksburg,39.2807,-80.3445,66.96,24,1,4.61,US,1619477575
313,gat,31.61,34.7642,62.15,100,69,5.95,IL,1619477576
314,seydi,39.4816,62.9137,71.37,24,0,10.25,TM,1619477576
315,bathsheba,13.2167,-59.5167,80.6,57,40,14.97,BB,1619477109
316,razole,16.4833,81.8333,78.13,80,1,3.04,IN,1619477577
317,cape coast,5.1053,-1.2466,81.81,86,92,9.8,GH,1619477577
318,hualmay,-11.0964,-77.6139,67.55,85,12,9.95,PE,1619477577
319,port lincoln,-34.7333,135.8667,62.91,72,95,6.64,AU,1619477293
320,mana,5.6592,-53.7767,77.02,90,100,10.94,GF,1619477578
321,sao filipe,14.8961,-24.4956,71.8,76,15,9.78,CV,1619477244
322,nileshwar,12.25,75.1,82.0,83,1,7.11,IN,1619477578
323,kupang,-10.1667,123.5833,74.07,72,82,6.15,ID,1619477579
324,valparaiso,-33.0393,-71.6273,54.5,100,90,3.44,CL,1619477286
325,la seyne-sur-mer,43.0982,5.8847,58.44,67,87,7.0,FR,1619477579
326,campos,-21.75,-41.3,71.08,96,31,6.62,BR,1619477580
327,seoul,37.5683,126.9778,54.27,71,0,3.44,KR,1619477409
328,ostersund,63.1792,14.6357,32.0,69,90,6.91,SE,1619477580
329,presidencia roque saenz pena,-26.7852,-60.4388,57.43,62,0,4.63,AR,1619477581
330,puerto baquerizo moreno,-0.9,-89.6,80.6,74,75,14.97,EC,1619477581
331,la romana,18.4273,-68.9728,78.8,83,75,11.5,DO,1619477581
332,auch,43.65,0.5833,52.41,95,100,1.99,FR,1619477582
333,sebring,27.4956,-81.4409,81.36,47,40,11.5,US,1619477582
334,datia,25.6667,78.4667,82.98,7,3,5.3,IN,1619477583
335,namtsy,62.7161,129.6658,35.6,87,90,2.24,RU,1619477583
336,sitka,57.0531,-135.33,50.0,76,1,3.44,US,1619477583
337,lagoa,39.05,-27.9833,59.77,89,92,10.4,PT,1619477189
338,mirai,-21.1953,-42.6142,69.6,93,27,4.38,BR,1619477584
339,normandin,48.8333,-72.5321,34.93,75,100,16.11,CA,1619477584
340,winnemucca,40.973,-117.7357,44.6,45,90,9.22,US,1619477585
341,warrensburg,38.7628,-93.7361,82.4,32,1,26.46,US,1619477585
342,port hardy,50.6996,-127.4199,52.21,76,40,9.22,CA,1619477586
343,nelson bay,-32.7167,152.15,59.0,94,40,10.36,AU,1619477295
344,coihaique,-45.5752,-72.0662,51.8,87,75,6.91,CL,1619477586
345,beaufort,5.3473,115.7455,78.4,94,20,1.14,MY,1619477587
346,san jose de guanipa,8.8872,-64.1651,89.46,34,88,9.13,VE,1619477587
347,hanko,59.8333,22.95,36.72,91,100,1.99,FI,1619477587
348,herat,34.5,62.0,63.81,20,83,5.99,AF,1619477588
349,englewood,39.6478,-104.9878,75.52,7,75,16.11,US,1619477453
350,navahrudak,53.6,25.8333,27.84,95,65,7.25,BY,1619477588
351,moree,-29.4667,149.85,59.0,72,0,9.22,AU,1619477589
352,dingle,10.9995,122.6711,78.6,78,52,7.7,PH,1619477589
353,kachug,53.9606,105.8817,30.33,76,63,11.41,RU,1619477590
354,santa marta,11.2408,-74.199,86.2,58,90,14.97,CO,1619477513
355,tomelloso,39.1522,-3.0243,50.18,82,40,5.75,ES,1619477590
356,ayr,55.4627,-4.6339,47.28,87,90,4.61,GB,1619477591
357,siavonga,-16.5382,28.7088,73.38,55,2,4.07,ZM,1619477591
358,mianyang,31.4593,104.7542,61.83,78,98,1.88,CN,1619477592
359,cherskiy,68.75,161.3,21.4,83,60,8.39,RU,1619477592
360,garowe,8.4054,48.4845,78.22,66,90,5.39,SO,1619477593
361,los llanos de aridane,28.6585,-17.9182,63.16,73,90,3.44,ES,1619477334
362,port keats,-14.25,129.55,79.02,76,64,6.13,AU,1619477333
363,labuhan,-6.8844,112.2051,76.96,84,58,6.35,ID,1619477301
364,pauini,-7.7136,-66.9764,73.04,97,89,1.83,BR,1619477594
365,gouyave,12.1646,-61.7296,82.4,69,20,19.57,GD,1619477594
366,hithadhoo,-0.6,73.0833,82.31,64,10,4.83,MV,1619477594
367,aquiraz,-3.9014,-38.3911,82.4,78,0,8.05,BR,1619477467
368,pasni,25.2631,63.471,80.89,78,5,6.62,PK,1619477595
369,tulsipur,28.131,82.2973,80.01,64,0,3.0,NP,1619477595
370,belyy yar,53.6039,91.3903,30.2,74,99,2.24,RU,1619477596
371,sandpoint,48.2766,-116.5533,54.57,47,90,4.61,US,1619477413
372,shingu,33.7333,135.9833,59.86,57,79,1.63,JP,1619477314
373,broome,42.2506,-75.833,46.22,29,1,16.11,US,1619477596
374,ballina,-28.8667,153.5667,62.4,82,60,8.05,AU,1619477597
375,mpongwe,-13.5091,28.155,63.97,86,99,4.03,ZM,1619477597
376,sao jose da coroa grande,-8.8978,-35.1478,77.97,82,80,7.96,BR,1619477598
377,pangnirtung,66.1451,-65.7125,35.6,87,90,6.91,CA,1619477599
378,harper,4.375,-7.7169,80.6,82,20,7.25,LR,1619477319
379,makakilo city,21.3469,-158.0858,79.84,57,1,9.22,US,1619477599
380,huaral,-11.495,-77.2078,65.62,77,0,9.22,PE,1619477600
381,san rafael,-34.6177,-68.3301,65.37,55,0,8.63,AR,1619477439
382,vila velha,-20.3297,-40.2925,78.8,89,20,8.05,BR,1619477600
383,illapel,-31.6308,-71.1653,66.51,64,0,2.3,CL,1619477601
384,shizunai,42.3339,142.3669,42.21,56,2,9.15,JP,1619477601
385,cabedelo,-6.9811,-34.8339,77.0,94,20,9.22,BR,1619477601
386,edendale,-29.6528,30.3147,60.01,96,68,5.44,ZA,1619477602
387,marawi,7.9986,124.2928,75.0,90,100,5.01,PH,1619477602
388,bundaberg,-24.85,152.35,71.38,72,0,9.22,AU,1619477603
389,filingue,14.3521,3.3168,91.58,24,80,4.65,NE,1619477603
390,colares,38.7992,-9.4469,60.06,94,100,8.01,PT,1619477603
391,nadym,65.5333,72.5167,34.32,95,100,17.96,RU,1619477604
392,ketchikan,55.3422,-131.6461,57.67,39,0,4.5,US,1619477604
393,porto novo,6.4965,2.6036,86.0,79,20,10.36,BJ,1619477303
394,tibati,6.4667,12.6333,75.87,57,84,1.83,CM,1619477605
395,anadyr,64.75,177.4833,24.8,100,0,6.71,RU,1619477221
396,lashio,22.9333,97.75,64.6,89,51,1.88,MM,1619477605
397,bonavista,48.6499,-53.1147,39.79,65,100,11.5,CA,1619477606
398,tutoia,-2.7619,-42.2744,79.2,81,96,7.7,BR,1619477606
399,nurota,40.5614,65.6886,60.8,39,0,11.5,UZ,1619477606
400,tsabong,-26.0217,22.401,70.29,21,70,11.5,BW,1619477338
401,flinders,-34.5833,150.8552,60.42,90,1,1.01,AU,1619477305
402,aklavik,68.2191,-135.0107,21.2,45,100,8.05,CA,1619477607
403,soe,-9.8607,124.284,63.46,68,39,2.68,ID,1619477608
404,pathein,16.7833,94.7333,77.92,81,65,4.38,MM,1619477608
405,misratah,32.3754,15.0925,65.93,74,61,23.42,LY,1619477609
406,bilibino,68.0546,166.4372,24.26,86,100,3.24,RU,1619477311
407,lavrentiya,65.5833,-171.0,32.14,87,94,2.28,RU,1619477609
408,saurimo,-9.6608,20.3916,67.82,84,98,1.66,AO,1619477610
409,mount isa,-20.7333,139.5,78.8,50,43,10.36,AU,1619477610
410,deputatskiy,69.3,139.9,26.65,90,100,2.06,RU,1619477610
411,moose factory,51.2585,-80.6094,53.6,26,1,8.05,CA,1619477611
412,uvira,-3.4067,29.1458,71.51,85,93,1.92,CD,1619477611
413,sulangan,11.1373,123.7228,80.31,72,42,11.77,PH,1619477612
414,elko,41.0002,-115.5012,41.49,45,40,23.02,US,1619477612
415,saint-georges,12.0564,-61.7485,82.4,69,20,19.57,GD,1619477612
416,hofn,64.2539,-15.2082,38.44,73,18,3.56,IS,1619477613
417,williams lake,52.1415,-122.1445,57.2,18,40,5.75,CA,1619477405
418,salsomaggiore terme,44.8148,9.9796,51.96,85,100,4.0,IT,1619477613
419,petropavlovsk-kamchatskiy,53.0452,158.6483,33.8,100,90,2.24,RU,1619477614
420,mackay,-21.15,149.2,67.73,88,75,6.91,AU,1619477614
421,ankazobe,-18.3167,47.1167,60.8,94,75,9.22,MG,1619477615
422,areka,7.0667,37.7,59.92,96,100,1.36,ET,1619477615
423,marsabit,2.3284,37.9899,68.5,64,92,4.25,KE,1619477615
424,doboj,44.7347,18.0878,48.13,100,75,2.3,BA,1619477616
425,shupiyan,33.7167,74.8333,47.26,60,38,4.03,IN,1619477616
426,lac du bonnet,50.2536,-96.0612,40.14,79,100,5.39,CA,1619477617
427,maua,-23.6678,-46.4614,65.3,77,90,6.24,BR,1619477617
428,wilmington,34.2257,-77.9447,69.73,40,1,10.36,US,1619477617
429,cam ranh,11.9214,109.1591,78.8,89,20,1.14,VN,1619477309
430,sechura,-5.5569,-80.8222,75.36,64,25,16.67,PE,1619477618
431,yasnyy,51.0333,59.8742,47.41,95,100,14.03,RU,1619477618
432,hambantota,6.1241,81.1185,78.8,100,20,2.3,LK,1619477285
433,nianzishan,47.5167,122.8833,48.97,41,0,16.84,CN,1619477619
434,sawakin,19.1059,37.3321,82.26,73,18,1.77,SD,1619477619
435,skibbereen,51.55,-9.2667,48.2,66,20,11.5,IE,1619477620
436,the pas,53.8251,-101.2541,53.6,47,40,11.5,CA,1619477620
437,ostrovnoy,68.0531,39.5131,29.43,71,100,15.7,RU,1619477620
438,porto walter,-8.2686,-72.7439,73.85,89,58,2.86,BR,1619477621
439,loukhi,66.0764,33.0381,24.42,95,48,2.8,RU,1619477621
440,beyneu,45.3167,55.2,72.36,37,13,7.31,KZ,1619477621
441,buraydah,26.326,43.975,78.8,44,20,6.91,SA,1619477622
442,peace river,56.2501,-117.286,35.6,48,40,16.11,CA,1619477622
443,palana,59.1167,159.9667,25.59,90,100,4.36,RU,1619477623
444,guerrero negro,27.9769,-114.0611,64.11,57,97,16.24,MX,1619477623
445,masakin,35.7292,10.5808,63.45,94,0,12.66,TN,1619477624
446,fonte boa,-2.4959,-66.2662,74.34,98,99,3.36,BR,1619477624
447,vuktyl,63.8567,57.3094,32.25,88,54,4.99,RU,1619477624
448,yacuiba,-22.038,-63.6797,64.99,69,100,1.99,BO,1619477625
449,itoman,26.1247,127.6694,66.83,77,75,4.61,JP,1619477625
450,san cristobal,7.7669,-72.225,84.2,65,40,11.5,VE,1619477481
451,san lazaro,18.0387,-88.6622,86.56,66,40,10.36,BZ,1619477626
452,itarema,-2.9248,-39.9167,80.13,79,71,12.5,BR,1619477626
453,hit,33.6416,42.8251,79.75,21,62,20.8,IQ,1619477626
454,salihli,38.4826,28.1477,48.97,77,1,1.54,TR,1619477627
455,veliko gradiste,44.7567,21.5136,46.99,86,100,1.01,RS,1619477627
456,chengde,40.9725,117.9361,51.66,47,2,3.53,CN,1619477627
457,boke,10.9409,-14.2967,76.91,74,100,4.16,GN,1619477628
458,bandundu,-3.3167,17.3667,73.99,88,93,0.94,CD,1619477628
459,derzhavinsk,51.1,66.3167,53.44,79,100,6.2,KZ,1619477629
460,grand-santi,4.25,-54.3833,73.98,98,100,3.15,GF,1619477629
461,neryungri,56.6709,124.6491,33.21,99,100,2.95,RU,1619477630
462,lucea,18.451,-78.1736,84.61,70,20,8.05,JM,1619477630
463,chernyshevskiy,63.0128,112.4714,13.28,75,12,8.46,RU,1619477630
464,miranda,3.2499,-76.2281,78.8,69,75,5.75,CO,1619477631
465,oyama,36.3,139.8,53.85,53,20,4.61,JP,1619477631
466,cozumel,20.5083,-86.9458,85.48,58,40,6.91,MX,1619477631
467,hanna,51.6334,-111.9018,57.99,16,33,13.0,CA,1619477632
468,cayenne,4.9333,-52.3333,77.59,94,75,5.75,GF,1619477632
469,denizli,37.8402,29.0698,44.6,87,0,6.91,TR,1619477633
470,taoudenni,22.6783,-3.9836,91.96,13,29,11.52,ML,1619477633
471,klaksvik,62.2266,-6.589,39.2,81,100,19.57,FO,1619477633
472,pevek,69.7008,170.3133,22.71,90,99,4.79,RU,1619477634
473,yambio,4.5721,28.3955,66.7,93,73,2.53,SS,1619477634
474,opuwo,-18.0607,13.84,63.37,57,7,3.51,NA,1619477634
475,lewisporte,49.2499,-55.0482,45.68,49,90,26.46,CA,1619477635
476,egvekinot,66.3167,-179.1667,24.84,87,27,1.9,RU,1619477635
477,baracoa,20.3467,-74.4958,78.78,75,0,7.49,CU,1619477636
478,ust-maya,60.4167,134.5333,33.31,99,100,2.48,RU,1619477636
479,isla aguada,18.7833,-91.4667,89.6,58,1,9.22,MX,1619477637
480,mujiayingzi,42.1167,118.7833,49.26,31,45,15.46,CN,1619477637
481,kirkwall,58.9848,-2.9587,44.6,93,90,11.5,GB,1619477637
482,kharp,66.8014,65.8081,33.87,98,100,5.91,RU,1619477638
483,otane,-39.8833,176.6333,58.75,52,100,4.0,NZ,1619477638
484,nizwa,22.9333,57.5333,78.28,25,88,0.96,OM,1619477638
485,erenhot,43.6475,111.9767,38.1,39,83,16.89,CN,1619477639
486,umm lajj,25.0213,37.2685,77.52,73,0,6.17,SA,1619477639
487,vulcan,45.3833,23.2667,40.12,88,100,1.9,RO,1619477640
488,waikuku,-43.3,172.6833,50.45,81,40,6.91,NZ,1619477640
489,omboue,-1.5746,9.2618,79.02,86,100,5.46,GA,1619477640
490,san policarpo,12.1791,125.5072,79.5,79,67,9.69,PH,1619477641
491,sinnamary,5.3833,-52.95,77.72,88,100,10.83,GF,1619477641
492,keetmanshoop,-26.5833,18.1333,62.6,59,66,8.05,NA,1619477642
493,abramovka,51.1886,41.0202,40.41,92,45,12.5,RU,1619477642
494,xichang,27.8964,102.2634,60.62,67,55,1.95,CN,1619477643
495,salalah,17.0151,54.0924,82.4,74,40,5.75,OM,1619477643
496,marrakesh,31.6315,-8.0083,62.6,67,40,6.91,MA,1619477643
497,meulaboh,4.1363,96.1285,76.68,89,99,3.38,ID,1619477644
498,byron bay,-28.65,153.6167,63.79,82,66,8.05,AU,1619477644
499,roald,62.5833,6.1333,34.77,75,100,5.75,NO,1619477645
500,karratha,-20.7377,116.8463,74.84,33,0,9.01,AU,1619477312
501,hervey bay,-25.2986,152.8535,73.27,72,22,9.22,AU,1619477645
502,olinda,-8.0089,-34.8553,78.8,73,40,6.91,BR,1619477646
503,revda,56.801,59.9303,33.8,60,0,6.71,RU,1619477646
504,ugoofaaru,5.6667,73.0,83.08,74,5,6.64,MV,1619477647
505,manama,26.2154,50.5832,80.6,74,100,8.05,BH,1619477647
506,limon,10.0,-83.0333,84.2,74,40,8.05,CR,1619477648
507,mayuge,0.4597,33.4803,62.37,96,68,3.62,UG,1619477648
508,huari,-9.3333,-77.2333,47.55,79,77,2.95,PE,1619477648
509,jinchang,38.4953,102.1739,40.66,24,74,11.52,CN,1619477649
510,urumqi,43.801,87.6005,51.8,54,0,6.71,CN,1619477649
511,sarahan,31.5167,77.8,49.32,45,0,10.02,IN,1619477649
512,kasimov,54.9411,41.3953,38.14,73,98,7.74,RU,1619477650
513,inirida,3.8653,-67.9239,77.05,92,97,1.66,CO,1619477650
514,eskil,38.4017,33.4131,52.81,69,93,10.09,TR,1619477651
515,maragua,-0.7833,37.1333,61.12,82,20,4.61,KE,1619477651
516,daru,-9.0763,143.2092,80.06,84,88,4.29,PG,1619477335
517,puteyets,65.1716,57.091,37.69,91,100,4.29,RU,1619477652
518,trincomalee,8.5711,81.2335,80.94,79,56,8.28,LK,1619477652
519,karpogory,64.0019,44.4451,32.74,92,100,7.11,RU,1619477653
520,quelimane,-17.8786,36.8883,78.39,89,20,4.61,MZ,1619477653
521,comodoro rivadavia,-45.8667,-67.5,66.2,42,0,27.63,AR,1619477497
522,college,64.8569,-147.8028,56.08,26,75,7.18,US,1619477470
523,mayumba,-3.432,10.6554,78.8,88,29,5.01,GA,1619477654
524,solnechnyy,50.7214,136.6319,46.44,47,83,5.84,RU,1619477654
525,portree,57.4129,-6.1942,45.0,81,66,3.0,GB,1619477655
526,bubaque,11.2833,-15.8333,78.37,70,47,17.2,GW,1619477655
527,narkevychi,49.5172,26.6418,34.66,74,64,4.36,UA,1619477655
528,dashitou,43.3067,128.5114,52.59,65,98,10.63,CN,1619477656
529,micheweni,-4.9667,39.8333,78.04,87,100,9.44,TZ,1619477656
530,timelkam,48.0039,13.6076,37.31,54,1,2.68,AT,1619477656
531,sangar,63.9242,127.4739,22.5,93,100,11.39,RU,1619477657
532,bata,1.8639,9.7658,80.02,86,100,5.77,GQ,1619477657
533,troitskoye,52.9821,84.6757,45.81,79,100,11.25,RU,1619477657
534,adamovka,51.5223,59.9396,46.33,97,100,12.88,RU,1619477658
535,iskateley,67.6803,53.1512,36.05,98,100,4.29,RU,1619477658
536,goderich,43.7501,-81.7165,41.0,60,100,3.44,CA,1619477659
537,abashiri,44.0213,144.2697,39.99,76,24,1.99,JP,1619477659
538,naisud,11.8058,122.1939,80.15,75,78,9.31,PH,1619477660
539,lompoc,34.6391,-120.4579,57.42,44,1,19.57,US,1619477323
540,gushikawa,26.3544,127.8686,66.13,94,90,3.44,JP,1619477660
541,sangod,24.9167,76.2833,84.87,8,0,2.51,IN,1619477661
542,saint-joseph,-21.3667,55.6167,71.67,78,90,21.85,RE,1619477661
543,talaya,61.3833,152.75,13.71,70,33,1.9,RU,1619477662
544,poronaysk,49.2167,143.1167,34.95,68,15,3.4,RU,1619477662
545,parchim,53.4263,11.8488,33.39,81,2,1.99,DE,1619477663
546,beauceville,46.2179,-70.7787,33.8,75,92,8.05,CA,1619477663
547,kautokeino,69.0125,23.0412,10.44,95,65,3.6,NO,1619477331
548,salinopolis,-0.6136,-47.3561,79.43,82,99,9.44,BR,1619477537
549,stornoway,58.2093,-6.3865,46.65,93,90,17.27,GB,1619477664
550,oranjestad,12.524,-70.027,82.2,74,20,19.57,AW,1619477642
551,maraba,-5.3686,-49.1178,74.55,96,97,1.16,BR,1619477664
552,jijiang,29.2906,106.2542,63.48,94,0,2.24,CN,1619477665
553,balabac,7.9868,117.0645,81.14,76,80,3.62,PH,1619477665
554,baghdad,33.3406,44.4009,93.2,16,90,11.5,IQ,1619477617
555,prieska,-29.6641,22.7474,63.7,45,72,12.62,ZA,1619477666
